연번,흡연구역명,구분,소재지도로명주소,소재지지번주소,위도,경도,관리기관,데이터기준일자
1,안양역 흡연부스,안양시 만안구,경기도 안양시 만안구 만안로 232,경기도 안양시 만안구 안양동 88-10,37.40085595,126.9230987,만안구보건소,2021-07-07
2,안양아트센터 흡연부스,안양시 만안구,경기도 안양시 만안구 문예로36번길 16,경기도 안양시 만안구 안양동 549,37.3845856,126.9313711,만안구보건소,2021-07-07
3,평촌역 흡연부스,안양시 동안구,경기도 안양시 동안구 부림로 123,경기도 안양시 관양동 1608-1,37.39453476,126.9639703,동안구보건소,2021-07-07
4,KT동안지사,안양시 동안구,경기도 안양시 동안구 평촌대로 243번길,경기도 안양시 비산동 1110-2,37.39333021,126.9540486,동안구보건소,2021-07-07
5,농수산물 도매시장,안양시 동안구,경기도 안양시 동안구 흥안대로 313,경기도 안양시 평촌동 934-1,37.38310297,126.9704848,농수산물도매시장관리사업소,2021-07-07
6,시청 앞 미관광장,안양시 동안구,경기도 안양시 동안구 시민대로 230,경기도 안양시 동안구 관양동 1591,37.3923,126.9565,동안구보건소,2021-07-07
